hildenæ/htcone m8!/$GPRMC,150548,A,7011.33596,N,2031.27851,E,0.000000,0.000000,221214,,*22
hildenæ/htcone m8!/$GPRMC,150550,A,7011.33587,N,2031.27860,E,0.000000,0.000000,221214,,*29
hildenæ/htcone m8!/$GPRMC,150552,A,7011.33585,N,2031.27864,E,0.000000,0.000000,221214,,*2D
hildenæ/htcone m8!/$GPRMC,150554,A,7011.33571,N,2031.27885,E,0.000000,0.000000,221214,,*2F
hildenæ/htcone m8!/$GPRMC,150556,A,7011.33569,N,2031.27887,E,0.000000,0.000000,221214,,*26
hildenæ/htcone m8!/$GPRMC,150558,A,7011.33566,N,2031.27888,E,0.000000,0.000000,221214,,*28
hildenæ/htcone m8!/$GPRMC,150600,A,7011.33566,N,2031.27890,E,0.000000,0.000000,221214,,*2F
hildenæ/htcone m8!/$GPRMC,150602,A,7011.33562,N,2031.27887,E,0.000000,0.000000,221214,,*2F
hildenæ/htcone m8!/$GPRMC,150604,A,7011.33564,N,2031.27884,E,0.000000,0.000000,221214,,*2C
hildenæ/htcone m8!/$GPRMC,150606,A,7011.33563,N,2031.27884,E,0.000000,0.000000,221214,,*29
hildenæ/htcone m8!/$GPRMC,150608,A,7011.33563,N,2031.27883,E,0.000000,0.000000,221214,,*20
hildenæ/htcone m8!/$GPRMC,150610,A,7011.33555,N,2031.27893,E,0.000000,0.000000,221214,,*2D
hildenæ/htcone m8!/$GPRMC,150612,A,7011.33555,N,2031.27894,E,0.000000,0.000000,221214,,*28
hildenæ/htcone m8!/$GPRMC,150614,A,7011.33552,N,2031.27897,E,0.000000,0.000000,221214,,*2A
hildenæ/htcone m8!/$GPRMC,150615,A,7011.33552,N,2031.27897,E,0.000000,0.000000,221214,,*2B
hildenæ/htcone m8!/$GPRMC,150617,A,7011.33553,N,2031.27896,E,0.000000,0.000000,221214,,*29
hildenæ/htcone m8!/$GPRMC,150619,A,7011.33552,N,2031.27898,E,0.000000,0.000000,221214,,*28
hildenæ/htcone m8!/$GPRMC,150621,A,7011.33552,N,2031.27898,E,0.000000,0.000000,221214,,*23
hildenæ/htcone m8!/$GPRMC,150623,A,7011.33551,N,2031.27896,E,0.000000,0.000000,221214,,*2C
hildenæ/htcone m8!/$GPRMC,150625,A,7011.33550,N,2031.27894,E,0.000000,0.000000,221214,,*29
hildenæ/htcone m8!/$GPRMC,150627,A,7011.33550,N,2031.27893,E,0.000000,0.000000,221214,,*2C
hildenæ/htcone m8!/$GPRMC,150630,A,7011.33550,N,2031.27894,E,0.000000,0.000000,221214,,*2D
hildenæ/htcone m8!/$GPRMC,150632,A,7011.33550,N,2031.27894,E,0.000000,0.000000,221214,,*2F
hildenæ/htcone m8!/$GPRMC,150634,A,7011.33550,N,2031.27894,E,0.000000,0.000000,221214,,*29
hildenæ/htcone m8!/$GPRMC,150636,A,7011.33550,N,2031.27893,E,0.000000,0.000000,221214,,*2C
hildenæ/htcone m8!/$GPRMC,150638,A,7011.33551,N,2031.27894,E,0.000000,0.000000,221214,,*24
hildenæ/htcone m8!/$GPRMC,150640,A,7011.33551,N,2031.27894,E,0.000000,0.000000,221214,,*2B
hildenæ/htcone m8!/$GPRMC,150642,A,7011.33551,N,2031.27894,E,0.000000,0.000000,221214,,*29
hildenæ/htcone m8!/$GPRMC,150644,A,7011.33550,N,2031.27895,E,0.000000,0.000000,221214,,*2F
hildenæ/htcone m8!/$GPRMC,150646,A,7011.33550,N,2031.27895,E,0.000000,0.000000,221214,,*2D
hildenæ/htcone m8!/$GPRMC,150648,A,7011.33550,N,2031.27895,E,0.000000,0.000000,221214,,*23
hildenæ/htcone m8!/$GPRMC,150650,A,7011.33550,N,2031.27895,E,0.000000,0.000000,221214,,*2A
hildenæ/htcone m8!/$GPRMC,150653,A,7011.33550,N,2031.27896,E,0.000000,0.000000,221214,,*2A
hildenæ/htcone m8!/$GPRMC,150657,A,7011.33548,N,2031.27901,E,0.000000,0.000000,221214,,*28
hildenæ/htcone m8!/$GPRMC,150659,A,7011.33548,N,2031.27902,E,0.000000,0.000000,221214,,*25
hildenæ/htcone m8!/$GPRMC,150701,A,7011.33547,N,2031.27904,E,0.000000,0.000000,221214,,*20
hildenæ/htcone m8!/$GPRMC,150702,A,7011.33546,N,2031.27905,E,0.000000,0.000000,221214,,*23
hildenæ/htcone m8!/$GPRMC,150704,A,7011.33546,N,2031.27905,E,0.000000,0.000000,221214,,*25
hildenæ/htcone m8!/$GPRMC,150706,A,7011.33546,N,2031.27907,E,0.000000,0.000000,221214,,*25
hildenæ/htcone m8!/$GPRMC,150708,A,7011.33547,N,2031.27907,E,0.000000,0.000000,221214,,*2A
hildenæ/htcone m8!/$GPRMC,150710,A,7011.33552,N,2031.27899,E,0.000000,0.000000,221214,,*21
hildenæ/htcone m8!/$GPRMC,150712,A,7011.33552,N,2031.27899,E,0.000000,0.000000,221214,,*23
hildenæ/htcone m8!/$GPRMC,150714,A,7011.33552,N,2031.27900,E,0.000000,0.000000,221214,,*24
hildenæ/htcone m8!/$GPRMC,150716,A,7011.33551,N,2031.27901,E,0.000000,0.000000,221214,,*24
hildenæ/htcone m8!/$GPRMC,150718,A,7011.33551,N,2031.27902,E,0.000000,0.000000,221214,,*29
hildenæ/htcone m8!/$GPRMC,150720,A,7011.33551,N,2031.27901,E,0.000000,0.000000,221214,,*21
hildenæ/htcone m8!/$GPRMC,150722,A,7011.33550,N,2031.27902,E,0.000000,0.000000,221214,,*21
hildenæ/htcone m8!/$GPRMC,150724,A,7011.33550,N,2031.27901,E,0.000000,0.000000,221214,,*24
hildenæ/htcone m8!/$GPRMC,150726,A,7011.33550,N,2031.27902,E,0.000000,0.000000,221214,,*25
hildenæ/htcone m8!/$GPRMC,150728,A,7011.33549,N,2031.27902,E,0.000000,0.000000,221214,,*23
hildenæ/htcone m8!/$GPRMC,150730,A,7011.33550,N,2031.27902,E,0.000000,0.000000,221214,,*22
hildenæ/htcone m8!/$GPRMC,150732,A,7011.33550,N,2031.27902,E,0.000000,0.000000,221214,,*20
hildenæ/htcone m8!/$GPRMC,150734,A,7011.33550,N,2031.27902,E,0.000000,0.000000,221214,,*26
hildenæ/htcone m8!/$GPRMC,150736,A,7011.33549,N,2031.27902,E,0.000000,0.000000,221214,,*2C
hildenæ/htcone m8!/$GPRMC,150738,A,7011.33550,N,2031.27902,E,0.000000,0.000000,221214,,*2A
hildenæ/htcone m8!/$GPRMC,150740,A,7011.33550,N,2031.27902,E,0.000000,0.000000,221214,,*25
hildenæ/htcone m8!/$GPRMC,150742,A,7011.33550,N,2031.27902,E,0.000000,0.000000,221214,,*27
hildenæ/htcone m8!/$GPRMC,150744,A,7011.33550,N,2031.27902,E,0.000000,0.000000,221214,,*21
hildenæ/htcone m8!/$GPRMC,150746,A,7011.33550,N,2031.27902,E,0.000000,0.000000,221214,,*23
hildenæ/htcone m8!/$GPRMC,150748,A,7011.33550,N,2031.27902,E,0.000000,0.000000,221214,,*2D
hildenæ/htcone m8!/$GPRMC,150750,A,7011.33550,N,2031.27902,E,0.000000,0.000000,221214,,*24
hildenæ/htcone m8!/$GPRMC,150753,A,7011.33551,N,2031.27899,E,0.000000,0.000000,221214,,*25
hildenæ/htcone m8!/$GPRMC,150755,A,7011.33551,N,2031.27898,E,0.000000,0.000000,221214,,*22
hildenæ/htcone m8!/$GPRMC,150757,A,7011.33551,N,2031.27898,E,0.000000,0.000000,221214,,*20
hildenæ/htcone m8!/$GPRMC,150759,A,7011.33551,N,2031.27899,E,0.000000,0.000000,221214,,*2F
hildenæ/htcone m8!/$GPRMC,150801,A,7011.33551,N,2031.27899,E,0.000000,0.000000,221214,,*2D
hildenæ/htcone m8!/$GPRMC,150803,A,7011.33551,N,2031.27899,E,0.000000,0.000000,221214,,*2F
hildenæ/htcone m8!/$GPRMC,150805,A,7011.33551,N,2031.27899,E,0.000000,0.000000,221214,,*29
hildenæ/htcone m8!/$GPRMC,150807,A,7011.33551,N,2031.27899,E,0.000000,0.000000,221214,,*2B
hildenæ/htcone m8!/$GPRMC,150809,A,7011.33551,N,2031.27899,E,0.000000,0.000000,221214,,*25
hildenæ/htcone m8!/$GPRMC,150811,A,7011.33551,N,2031.27899,E,0.000000,0.000000,221214,,*2C
hildenæ/htcone m8!/$GPRMC,150815,A,7011.33551,N,2031.27900,E,0.000000,0.000000,221214,,*29
hildenæ/htcone m8!/$GPRMC,150817,A,7011.33550,N,2031.27901,E,0.000000,0.000000,221214,,*2B
hildenæ/htcone m8!/$GPRMC,150819,A,7011.33549,N,2031.27902,E,0.000000,0.000000,221214,,*2E
hildenæ/htcone m8!/$GPRMC,150821,A,7011.33549,N,2031.27903,E,0.000000,0.000000,221214,,*24
hildenæ/htcone m8!/$GPRMC,150823,A,7011.33549,N,2031.27903,E,0.000000,0.000000,221214,,*26
hildenæ/htcone m8!/$GPRMC,150825,A,7011.33549,N,2031.27904,E,0.000000,0.000000,221214,,*27
hildenæ/htcone m8!/$GPRMC,150827,A,7011.33549,N,2031.27904,E,0.000000,0.000000,221214,,*25
hildenæ/htcone m8!/$GPRMC,150829,A,7011.33549,N,2031.27904,E,0.000000,0.000000,221214,,*2B
hildenæ/htcone m8!/$GPRMC,150915,A,7011.33553,N,2031.27897,E,0.000000,0.000000,221214,,*25
