account5/device1/$GPRMC,183001,A,6957.14346,N,2057.31435,E,34.503240,39.700001,211214,,*21
account5/device1/$GPRMC,183003,A,6957.15870,N,2057.34375,E,34.503240,33.500000,211214,,*23
account5/device1/$GPRMC,183005,A,6957.17473,N,2057.37067,E,34.017279,29.400000,211214,,*2B
account5/device1/$GPRMC,183007,A,6957.19175,N,2057.39727,E,34.503240,28.900000,211214,,*2F
account5/device1/$GPRMC,183009,A,6957.20856,N,2057.42417,E,34.989201,29.400000,211214,,*28
account5/device1/$GPRMC,183011,A,6957.22644,N,2057.45242,E,36.447084,29.299999,211214,,*22
account5/device1/$GPRMC,183013,A,6957.24343,N,2057.48308,E,35.475162,31.500000,211214,,*2A
account5/device1/$GPRMC,183015,A,6957.26123,N,2057.51247,E,35.475162,29.200001,211214,,*27
account5/device1/$GPRMC,183017,A,6957.27916,N,2057.54102,E,35.475162,29.200001,211214,,*2D
account5/device1/$GPRMC,183020,A,6957.30800,N,2057.58042,E,36.933045,29.100000,211214,,*2A
account5/device1/$GPRMC,183022,A,6957.32393,N,2057.60707,E,33.045356,28.100000,211214,,*2B
account5/device1/$GPRMC,183024,A,6957.33880,N,2057.62372,E,34.017279,24.799999,211214,,*2E
account5/device1/$GPRMC,183026,A,6957.35546,N,2057.64574,E,34.017279,23.200001,211214,,*21
account5/device1/$GPRMC,183028,A,6957.37322,N,2057.66194,E,34.017279,15.700000,211214,,*20
account5/device1/$GPRMC,183030,A,6957.39141,N,2057.67193,E,34.989201,11.300000,211214,,*27
account5/device1/$GPRMC,183032,A,6957.41027,N,2057.68213,E,34.503240,7.600000,211214,,*16
account5/device1/$GPRMC,183034,A,6957.42937,N,2057.68770,E,34.503240,5.400000,211214,,*1B
account5/device1/$GPRMC,183036,A,6957.44854,N,2057.69316,E,34.017279,4.400000,211214,,*15
account5/device1/$GPRMC,183038,A,6957.46752,N,2057.69917,E,34.989201,5.100000,211214,,*1E
account5/device1/$GPRMC,183040,A,6957.48616,N,2057.70690,E,33.045356,6.900000,211214,,*10
account5/device1/$GPRMC,183041,A,6957.49518,N,2057.71121,E,32.559395,8.500000,211214,,*15
account5/device1/$GPRMC,183043,A,6957.51237,N,2057.72229,E,32.073434,13.000000,211214,,*22
account5/device1/$GPRMC,183057,A,6957.61653,N,2057.82932,E,24.784017,7.400000,211214,,*10
account5/device1/$GPRMC,183059,A,6957.63041,N,2057.83046,E,25.269978,0.300000,211214,,*15
account5/device1/$GPRMC,183101,A,6957.64443,N,2057.82492,E,25.755939,350.600006,211214,,*1E
account5/device1/$GPRMC,183103,A,6957.65794,N,2057.81476,E,25.755939,343.899994,211214,,*13
account5/device1/$GPRMC,183105,A,6957.67222,N,2057.79680,E,28.671706,336.100006,211214,,*12
account5/device1/$GPRMC,183107,A,6957.68657,N,2057.77021,E,32.559395,330.700012,211214,,*13
account5/device1/$GPRMC,183109,A,6957.70465,N,2057.74271,E,35.475162,329.200012,211214,,*1C
account5/device1/$GPRMC,183111,A,6957.72205,N,2057.71039,E,37.904968,328.899994,211214,,*1B
account5/device1/$GPRMC,183113,A,6957.73991,N,2057.68238,E,35.475162,331.600006,211214,,*1A
account5/device1/$GPRMC,183115,A,6957.75693,N,2057.65176,E,35.961123,329.399994,211214,,*10
account5/device1/$GPRMC,183117,A,6957.77482,N,2057.62061,E,36.933045,329.799988,211214,,*1E
account5/device1/$GPRMC,183119,A,6957.78952,N,2057.59232,E,34.503240,328.200012,211214,,*17
account5/device1/$GPRMC,183121,A,6957.80647,N,2057.56360,E,37.419006,329.500000,211214,,*15
account5/device1/$GPRMC,183123,A,6957.82475,N,2057.53471,E,37.419006,331.100006,211214,,*1F
account5/device1/$GPRMC,183125,A,6957.84286,N,2057.50401,E,35.961123,329.100006,211214,,*1E
account5/device1/$GPRMC,183127,A,6957.85947,N,2057.47441,E,32.559395,329.100006,211214,,*16
account5/device1/$GPRMC,183129,A,6957.87444,N,2057.45349,E,30.615551,333.399994,211214,,*15
account5/device1/$GPRMC,183131,A,6957.88904,N,2057.42506,E,28.185745,320.700012,211214,,*11
account5/device1/$GPRMC,183133,A,6957.90002,N,2057.39004,E,28.671706,313.700012,211214,,*15
account5/device1/$GPRMC,183135,A,6957.91017,N,2057.35480,E,30.615551,314.399994,211214,,*1D
account5/device1/$GPRMC,183137,A,6957.92138,N,2057.32233,E,28.671706,313.299988,211214,,*19
account5/device1/$GPRMC,183139,A,6957.93284,N,2057.28881,E,28.671706,315.700012,211214,,*13
account5/device1/$GPRMC,183141,A,6957.94595,N,2057.24744,E,34.017279,313.500000,211214,,*17
account5/device1/$GPRMC,183143,A,6957.96175,N,2057.20785,E,35.961123,314.500000,211214,,*16
account5/device1/$GPRMC,183145,A,6957.97503,N,2057.16267,E,37.904968,313.200012,211214,,*1D
account5/device1/$GPRMC,183147,A,6957.98973,N,2057.13126,E,35.475162,314.200012,211214,,*14
account5/device1/$GPRMC,183149,A,6958.00320,N,2057.08911,E,35.961123,314.299988,211214,,*19
account5/device1/$GPRMC,183151,A,6958.01591,N,2057.04692,E,34.989201,313.899994,211214,,*11
account5/device1/$GPRMC,183153,A,6958.02773,N,2057.00691,E,32.559395,314.600006,211214,,*19
account5/device1/$GPRMC,183155,A,6958.03954,N,2056.96883,E,31.101512,315.799988,211214,,*1A
account5/device1/$GPRMC,183157,A,6958.05204,N,2056.93125,E,31.101512,315.299988,211214,,*15
account5/device1/$GPRMC,183159,A,6958.06329,N,2056.89745,E,29.643628,315.600006,211214,,*14
account5/device1/$GPRMC,183201,A,6958.08168,N,2056.87450,E,32.073434,332.299988,211214,,*14
account5/device1/$GPRMC,183203,A,6958.09712,N,2056.85753,E,31.101512,338.700012,211214,,*19
account5/device1/$GPRMC,183205,A,6958.11255,N,2056.84285,E,29.643628,344.500000,211214,,*17
account5/device1/$GPRMC,183207,A,6958.13086,N,2056.83435,E,33.045356,352.799988,211214,,*1A
account5/device1/$GPRMC,183208,A,6958.14024,N,2056.83165,E,33.531317,355.500000,211214,,*15
account5/device1/$GPRMC,183210,A,6958.15940,N,2056.84104,E,34.017279,5.400000,211214,,*1E
account5/device1/$GPRMC,183212,A,6958.17980,N,2056.84747,E,34.989201,5.900000,211214,,*1F
account5/device1/$GPRMC,183214,A,6958.20291,N,2056.84886,E,37.419006,3.800000,211214,,*11
account5/device1/$GPRMC,183216,A,6958.22269,N,2056.85931,E,35.961123,5.900000,211214,,*1B
account5/device1/$GPRMC,183218,A,6958.24271,N,2056.86562,E,36.447084,5.400000,211214,,*18
account5/device1/$GPRMC,183220,A,6958.26268,N,2056.86757,E,36.933045,4.900000,211214,,*12
account5/device1/$GPRMC,183222,A,6958.28258,N,2056.87336,E,36.447084,6.200000,211214,,*15
account5/device1/$GPRMC,183224,A,6958.30275,N,2056.87924,E,35.475162,6.600000,211214,,*13
account5/device1/$GPRMC,183226,A,6958.32108,N,2056.88691,E,35.961123,6.700000,211214,,*18
account5/device1/$GPRMC,183228,A,6958.34041,N,2056.89040,E,35.961123,5.200000,211214,,*11
account5/device1/$GPRMC,183230,A,6958.36265,N,2056.89390,E,37.419006,2.600000,211214,,*15
account5/device1/$GPRMC,183232,A,6958.38480,N,2056.89003,E,36.933045,357.200012,211214,,*1A
account5/device1/$GPRMC,183234,A,6958.40260,N,2056.88573,E,35.475162,353.500000,211214,,*10
account5/device1/$GPRMC,183236,A,6958.42317,N,2056.87706,E,35.961123,352.299988,211214,,*1C
account5/device1/$GPRMC,183238,A,6958.44404,N,2056.86923,E,36.447084,351.600006,211214,,*17
account5/device1/$GPRMC,183240,A,6958.46349,N,2056.86072,E,35.961123,351.200012,211214,,*1E
account5/device1/$GPRMC,183242,A,6958.48342,N,2056.85103,E,34.017279,351.299988,211214,,*12
account5/device1/$GPRMC,183244,A,6958.50113,N,2056.84197,E,33.531317,351.000000,211214,,*13
account5/device1/$GPRMC,183246,A,6958.51918,N,2056.83671,E,31.587473,351.500000,211214,,*14
account5/device1/$GPRMC,183248,A,6958.53665,N,2056.82969,E,31.587473,352.500000,211214,,*19
account5/device1/$GPRMC,183250,A,6958.55368,N,2056.82296,E,30.615551,351.600006,211214,,*1B
account5/device1/$GPRMC,183252,A,6958.57023,N,2056.81859,E,30.129590,352.600006,211214,,*1B
account5/device1/$GPRMC,183254,A,6958.58616,N,2056.80879,E,29.157667,348.200012,211214,,*11
account5/device1/$GPRMC,183256,A,6958.60064,N,2056.79472,E,27.213823,340.000000,211214,,*10
account5/device1/$GPRMC,183301,A,6958.63460,N,2056.73066,E,30.129590,325.200012,211214,,*10
account5/device1/$GPRMC,183303,A,6958.64496,N,2056.70922,E,27.699784,322.100006,211214,,*1A
account5/device1/$GPRMC,183305,A,6958.65537,N,2056.65115,E,33.531317,303.500000,211214,,*14
account5/device1/$GPRMC,183307,A,6958.66526,N,2056.60452,E,34.017279,301.399994,211214,,*19
account5/device1/$GPRMC,183309,A,6958.67684,N,2056.55651,E,34.017279,303.700012,211214,,*1B
account5/device1/$GPRMC,183311,A,6958.68725,N,2056.51057,E,33.045356,304.399994,211214,,*1B
account5/device1/$GPRMC,183313,A,6958.69780,N,2056.46664,E,32.559395,304.200012,211214,,*17
account5/device1/$GPRMC,183315,A,6958.70719,N,2056.42402,E,32.073434,304.200012,211214,,*1E
account5/device1/$GPRMC,183317,A,6958.71630,N,2056.38680,E,30.129590,303.799988,211214,,*19
account5/device1/$GPRMC,183319,A,6958.72596,N,2056.35350,E,29.157667,306.000000,211214,,*1F
account5/device1/$GPRMC,183321,A,6958.73181,N,2056.30460,E,29.643628,299.200012,211214,,*19
account5/device1/$GPRMC,183323,A,6958.74369,N,2056.26835,E,30.615551,304.799988,211214,,*1F
account5/device1/$GPRMC,183325,A,6958.75244,N,2056.23187,E,31.101512,308.399994,211214,,*12
account5/device1/$GPRMC,183327,A,6958.76423,N,2056.19777,E,28.671706,315.600006,211214,,*10
account5/device1/$GPRMC,183329,A,6958.77638,N,2056.17511,E,28.671706,329.299988,211214,,*1F
account5/device1/$GPRMC,183331,A,6958.79129,N,2056.15466,E,29.157667,341.500000,211214,,*18
account5/device1/$GPRMC,183333,A,6958.80727,N,2056.13481,E,29.643628,342.600006,211214,,*14
account5/device1/$GPRMC,183335,A,6958.82146,N,2056.12134,E,27.213823,335.700012,211214,,*15
account5/device1/$GPRMC,183337,A,6958.83669,N,2056.09958,E,29.157667,334.799988,211214,,*1C
account5/device1/$GPRMC,183339,A,6958.85054,N,2056.06458,E,31.587473,317.200012,211214,,*17
account5/device1/$GPRMC,183341,A,6958.86248,N,2056.03183,E,32.073434,313.100006,211214,,*1E
account5/device1/$GPRMC,183343,A,6958.87538,N,2055.98602,E,32.559395,310.399994,211214,,*10
account5/device1/$GPRMC,183345,A,6958.88638,N,2055.94451,E,30.129590,312.500000,211214,,*10
account5/device1/$GPRMC,183347,A,6958.89811,N,2055.90350,E,30.615551,318.700012,211214,,*1A
account5/device1/$GPRMC,183349,A,6958.91070,N,2055.87761,E,29.157667,329.100006,211214,,*1C
account5/device1/$GPRMC,183351,A,6958.92476,N,2055.85723,E,30.615551,333.899994,211214,,*1F
account5/device1/$GPRMC,183353,A,6958.93965,N,2055.83672,E,30.615551,334.899994,211214,,*17
account5/device1/$GPRMC,183355,A,6958.95512,N,2055.81610,E,31.587473,334.799988,211214,,*17
account5/device1/$GPRMC,183357,A,6958.97029,N,2055.79597,E,30.615551,334.100006,211214,,*10
account5/device1/$GPRMC,183359,A,6958.98487,N,2055.77137,E,30.615551,330.799988,211214,,*1C
account5/device1/$GPRMC,183401,A,6958.99924,N,2055.74079,E,32.073434,323.600006,211214,,*11
account5/device1/$GPRMC,183403,A,6959.01287,N,2055.70475,E,33.045356,317.899994,211214,,*11
account5/device1/$GPRMC,183405,A,6959.02663,N,2055.66705,E,34.017279,316.799988,211214,,*16
account5/device1/$GPRMC,183407,A,6959.04058,N,2055.62965,E,34.503240,317.299988,211214,,*1E
account5/device1/$GPRMC,183409,A,6959.05443,N,2055.59141,E,34.503240,317.399994,211214,,*15
account5/device1/$GPRMC,183411,A,6959.06909,N,2055.55534,E,34.989201,320.899994,211214,,*12
account5/device1/$GPRMC,183413,A,6959.08458,N,2055.52058,E,35.475162,323.799988,211214,,*17
account5/device1/$GPRMC,183415,A,6959.10096,N,2055.48792,E,35.475162,324.700012,211214,,*19
account5/device1/$GPRMC,183417,A,6959.11699,N,2055.45490,E,35.961123,324.700012,211214,,*12
account5/device1/$GPRMC,183419,A,6959.13314,N,2055.42187,E,35.961123,324.500000,211214,,*1B
account5/device1/$GPRMC,183421,A,6959.14953,N,2055.38849,E,35.961123,324.899994,211214,,*11
account5/device1/$GPRMC,183423,A,6959.16539,N,2055.35483,E,35.475162,324.600006,211214,,*17
account5/device1/$GPRMC,183425,A,6959.18177,N,2055.32118,E,35.475162,324.700012,211214,,*15
account5/device1/$GPRMC,183427,A,6959.19831,N,2055.28835,E,35.475162,325.600006,211214,,*15
account5/device1/$GPRMC,183429,A,6959.21446,N,2055.25433,E,35.961123,324.700012,211214,,*13
account5/device1/$GPRMC,183431,A,6959.23110,N,2055.22012,E,36.447084,324.799988,211214,,*12
account5/device1/$GPRMC,183433,A,6959.24713,N,2055.18837,E,36.933045,324.899994,211214,,*15
account5/device1/$GPRMC,183435,A,6959.26393,N,2055.15236,E,36.933045,324.399994,211214,,*10
account5/device1/$GPRMC,183437,A,6959.28073,N,2055.11613,E,37.419006,324.399994,211214,,*15
account5/device1/$GPRMC,183439,A,6959.29780,N,2055.08107,E,36.933045,324.600006,211214,,*1F
account5/device1/$GPRMC,183441,A,6959.31386,N,2055.04846,E,34.989201,324.899994,211214,,*16
account5/device1/$GPRMC,183443,A,6959.32816,N,2055.01800,E,31.101512,324.899994,211214,,*1A
account5/device1/$GPRMC,183445,A,6959.34100,N,2054.99104,E,28.185745,323.600006,211214,,*16
account5/device1/$GPRMC,183447,A,6959.35246,N,2054.96235,E,27.699784,318.500000,211214,,*1F
account5/device1/$GPRMC,183449,A,6959.36308,N,2054.92859,E,28.671706,311.399994,211214,,*15
account5/device1/$GPRMC,183451,A,6959.37316,N,2054.88776,E,31.587473,303.000000,211214,,*1C
account5/device1/$GPRMC,183453,A,6959.38162,N,2054.83900,E,34.017279,293.500000,211214,,*1C
account5/device1/$GPRMC,183455,A,6959.38799,N,2054.78366,E,36.933045,288.200012,211214,,*18
account5/device1/$GPRMC,183457,A,6959.39513,N,2054.72589,E,37.419006,289.200012,211214,,*14
account5/device1/$GPRMC,183459,A,6959.40210,N,2054.66997,E,36.933045,290.399994,211214,,*1B
account5/device1/$GPRMC,183501,A,6959.41123,N,2054.61773,E,35.961123,298.000000,211214,,*1C
account5/device1/$GPRMC,183503,A,6959.42260,N,2054.57206,E,34.503240,308.899994,211214,,*10
account5/device1/$GPRMC,183505,A,6959.43640,N,2054.53472,E,34.503240,319.100006,211214,,*1B
account5/device1/$GPRMC,183507,A,6959.45326,N,2054.50356,E,35.961123,327.399994,211214,,*1A
account5/device1/$GPRMC,183509,A,6959.47006,N,2054.47205,E,35.475162,328.299988,211214,,*18
account5/device1/$GPRMC,183511,A,6959.48692,N,2054.43945,E,36.447084,327.799988,211214,,*1F
account5/device1/$GPRMC,183513,A,6959.50341,N,2054.40979,E,35.475162,327.899994,211214,,*1A
account5/device1/$GPRMC,183515,A,6959.52061,N,2054.37755,E,34.989201,327.500000,211214,,*1F
account5/device1/$GPRMC,183517,A,6959.53680,N,2054.34848,E,33.531317,328.000000,211214,,*11
account5/device1/$GPRMC,183519,A,6959.55235,N,2054.31789,E,33.531317,327.200012,211214,,*1A
account5/device1/$GPRMC,183521,A,6959.56742,N,2054.29010,E,34.017279,327.299988,211214,,*1C
account5/device1/$GPRMC,183523,A,6959.58240,N,2054.25982,E,32.559395,323.899994,211214,,*10
account5/device1/$GPRMC,183525,A,6959.59579,N,2054.22735,E,32.559395,318.100006,211214,,*1C
account5/device1/$GPRMC,183527,A,6959.60796,N,2054.19152,E,34.503240,314.100006,211214,,*14
account5/device1/$GPRMC,183529,A,6959.62101,N,2054.15008,E,34.017279,312.100006,211214,,*1E
account5/device1/$GPRMC,183531,A,6959.63312,N,2054.11160,E,33.531317,312.500000,211214,,*10
account5/device1/$GPRMC,183533,A,6959.64607,N,2054.07352,E,33.531317,316.500000,211214,,*14
account5/device1/$GPRMC,183535,A,6959.66059,N,2054.04046,E,32.559395,325.500000,211214,,*1D
account5/device1/$GPRMC,183537,A,6959.67685,N,2054.01330,E,33.531317,334.899994,211214,,*12
account5/device1/$GPRMC,183539,A,6959.69473,N,2053.99495,E,34.989201,343.700012,211214,,*11
account5/device1/$GPRMC,183541,A,6959.71369,N,2053.97989,E,36.933045,347.500000,211214,,*11
account5/device1/$GPRMC,183543,A,6959.73414,N,2053.96605,E,37.419006,347.700012,211214,,*14
account5/device1/$GPRMC,183545,A,6959.75533,N,2053.95258,E,39.362851,347.700012,211214,,*10
account5/device1/$GPRMC,183547,A,6959.77738,N,2053.93595,E,40.820734,346.700012,211214,,*17
account5/device1/$GPRMC,183549,A,6959.80074,N,2053.91427,E,43.250540,340.799988,211214,,*17
account5/device1/$GPRMC,183551,A,6959.82341,N,2053.89072,E,43.736501,340.500000,211214,,*1F
account5/device1/$GPRMC,183553,A,6959.84454,N,2053.86401,E,40.334773,338.799988,211214,,*11
account5/device1/$GPRMC,183555,A,6959.86217,N,2053.84578,E,37.419006,340.100006,211214,,*12
account5/device1/$GPRMC,183557,A,6959.88247,N,2053.82918,E,34.503240,342.700012,211214,,*1F
account5/device1/$GPRMC,183559,A,6959.90038,N,2053.81910,E,33.531317,351.100006,211214,,*1D
account5/device1/$GPRMC,183601,A,6959.91991,N,2053.81883,E,34.503240,0.300000,211214,,*15
account5/device1/$GPRMC,183603,A,6959.93823,N,2053.82352,E,34.503240,8.600000,211214,,*14
account5/device1/$GPRMC,183605,A,6959.95704,N,2053.83500,E,34.503240,12.700000,211214,,*24
account5/device1/$GPRMC,183607,A,6959.97493,N,2053.84735,E,32.559395,12.200000,211214,,*2F
account5/device1/$GPRMC,183609,A,6959.99280,N,2053.85342,E,32.559395,5.600000,211214,,*1C
account5/device1/$GPRMC,183611,A,7000.01168,N,2053.85142,E,34.017279,358.600006,211214,,*10
account5/device1/$GPRMC,183613,A,7000.03155,N,2053.84669,E,34.989201,355.899994,211214,,*11
account5/device1/$GPRMC,183614,A,7000.04514,N,2053.84421,E,35.961123,355.799988,211214,,*18
account5/device1/$GPRMC,183616,A,7000.06656,N,2053.84832,E,36.447084,357.500000,211214,,*1C
account5/device1/$GPRMC,183618,A,7000.07953,N,2053.84569,E,34.503240,0.700000,211214,,*10
account5/device1/$GPRMC,183620,A,7000.09856,N,2053.85078,E,33.045356,6.500000,211214,,*17
account5/device1/$GPRMC,183622,A,7000.11678,N,2053.85842,E,33.045356,7.500000,211214,,*1E
account5/device1/$GPRMC,183624,A,7000.13441,N,2053.86557,E,31.587473,8.300000,211214,,*18
account5/device1/$GPRMC,183626,A,7000.15115,N,2053.87250,E,30.129590,7.300000,211214,,*1B
account5/device1/$GPRMC,183628,A,7000.16588,N,2053.87880,E,26.727862,6.700000,211214,,*1B
account5/device1/$GPRMC,183630,A,7000.17861,N,2053.88454,E,22.840173,7.100000,211214,,*17
account5/device1/$GPRMC,183632,A,7000.18888,N,2053.88768,E,17.494600,2.000000,211214,,*15
account5/device1/$GPRMC,183634,A,7000.19705,N,2053.87962,E,15.550756,331.600006,211214,,*19
account5/device1/$GPRMC,183636,A,7000.20310,N,2053.86150,E,14.578834,317.200012,211214,,*1C
account5/device1/$GPRMC,183638,A,7000.21091,N,2053.85421,E,16.036717,353.899994,211214,,*17
account5/device1/$GPRMC,183640,A,7000.21999,N,2053.85729,E,17.494600,6.400000,211214,,*13
account5/device1/$GPRMC,183642,A,7000.23005,N,2053.86119,E,19.924406,5.700000,211214,,*15
account5/device1/$GPRMC,183644,A,7000.24305,N,2053.86437,E,23.812095,5.200000,211214,,*18
account5/device1/$GPRMC,183646,A,7000.25697,N,2053.86285,E,24.298056,358.100006,211214,,*14
account5/device1/$GPRMC,183648,A,7000.27048,N,2053.85877,E,24.298056,351.000000,211214,,*16
account5/device1/$GPRMC,183650,A,7000.28355,N,2053.84895,E,25.269978,344.600006,211214,,*1C
account5/device1/$GPRMC,183652,A,7000.29704,N,2053.83523,E,25.755939,341.600006,211214,,*12
account5/device1/$GPRMC,183653,A,7000.30392,N,2053.82887,E,25.755939,341.700012,211214,,*16
account5/device1/$GPRMC,183655,A,7000.31791,N,2053.81632,E,26.727862,342.100006,211214,,*1C
account5/device1/$GPRMC,183657,A,7000.33201,N,2053.79991,E,27.213823,340.100006,211214,,*15
account5/device1/$GPRMC,183659,A,7000.34635,N,2053.78210,E,28.671706,336.500000,211214,,*18
account5/device1/$GPRMC,183701,A,7000.36101,N,2053.75881,E,31.101512,330.100006,211214,,*12
account5/device1/$GPRMC,183703,A,7000.37674,N,2053.72744,E,34.503240,323.399994,211214,,*14
account5/device1/$GPRMC,183705,A,7000.39222,N,2053.68728,E,36.447084,316.399994,211214,,*15
account5/device1/$GPRMC,183707,A,7000.40591,N,2053.64258,E,37.419006,308.299988,211214,,*1B
account5/device1/$GPRMC,183709,A,7000.41780,N,2053.59302,E,37.419006,303.700012,211214,,*12
account5/device1/$GPRMC,183711,A,7000.42655,N,2053.53938,E,35.961123,292.100006,211214,,*14
account5/device1/$GPRMC,183713,A,7000.43187,N,2053.48273,E,36.447084,284.000000,211214,,*17
account5/device1/$GPRMC,183715,A,7000.43521,N,2053.42626,E,34.503240,279.799988,211214,,*12
account5/device1/$GPRMC,183717,A,7000.43774,N,2053.37500,E,31.587473,279.299988,211214,,*1D
account5/device1/$GPRMC,183719,A,7000.44017,N,2053.32492,E,31.587473,283.299988,211214,,*1C
account5/device1/$GPRMC,183721,A,7000.44603,N,2053.27600,E,32.559395,289.200012,211214,,*16
account5/device1/$GPRMC,183723,A,7000.45513,N,2053.22936,E,33.531317,300.200012,211214,,*1D
account5/device1/$GPRMC,183725,A,7000.46496,N,2053.18126,E,34.989201,302.000000,211214,,*19
account5/device1/$GPRMC,183727,A,7000.47946,N,2053.13592,E,37.904968,312.700012,211214,,*1D
account5/device1/$GPRMC,183729,A,7000.49365,N,2053.09033,E,37.904968,313.100006,211214,,*11
account5/device1/$GPRMC,183731,A,7000.50853,N,2053.04656,E,37.904968,313.500000,211214,,*14
account5/device1/$GPRMC,183735,A,7000.53785,N,2052.95481,E,38.876890,313.100006,211214,,*19
account5/device1/$GPRMC,183737,A,7000.55348,N,2052.90871,E,39.848812,312.700012,211214,,*1A
account5/device1/$GPRMC,183739,A,7000.56884,N,2052.86140,E,40.820734,313.399994,211214,,*19
account5/device1/$GPRMC,183741,A,7000.58509,N,2052.81168,E,42.764579,312.100006,211214,,*1A
account5/device1/$GPRMC,183743,A,7000.60154,N,2052.76066,E,43.250540,312.899994,211214,,*1A
account5/device1/$GPRMC,183745,A,7000.61733,N,2052.71138,E,42.278618,313.299988,211214,,*14
account5/device1/$GPRMC,183747,A,7000.63242,N,2052.66732,E,37.419006,315.600006,211214,,*1A
account5/device1/$GPRMC,183749,A,7000.64731,N,2052.63128,E,34.989201,322.100006,211214,,*1B
account5/device1/$GPRMC,183751,A,7000.66444,N,2052.60032,E,35.961123,331.700012,211214,,*1D
account5/device1/$GPRMC,183753,A,7000.68369,N,2052.57887,E,36.933045,341.299988,211214,,*16
account5/device1/$GPRMC,183755,A,7000.70245,N,2052.56295,E,34.989201,344.200012,211214,,*10
account5/device1/$GPRMC,183757,A,7000.72063,N,2052.54385,E,34.503240,339.500000,211214,,*11
account5/device1/$GPRMC,183759,A,7000.73799,N,2052.51587,E,34.989201,330.299988,211214,,*11
account5/device1/$GPRMC,183800,A,7000.74595,N,2052.49929,E,35.475162,325.399994,211214,,*1B
account5/device1/$GPRMC,183802,A,7000.76162,N,2052.45981,E,37.419006,318.600006,211214,,*1B
account5/device1/$GPRMC,183804,A,7000.77665,N,2052.42142,E,36.933045,320.500000,211214,,*11
account5/device1/$GPRMC,183806,A,7000.79247,N,2052.38658,E,37.904968,325.299988,211214,,*10
account5/device1/$GPRMC,183808,A,7000.81178,N,2052.35548,E,39.362851,332.100006,211214,,*1C
account5/device1/$GPRMC,183810,A,7000.83160,N,2052.32922,E,41.306695,338.500000,211214,,*1A
account5/device1/$GPRMC,183812,A,7000.85390,N,2052.30766,E,42.764579,340.899994,211214,,*1B
account5/device1/$GPRMC,183814,A,7000.87689,N,2052.28442,E,43.736501,341.299988,211214,,*11
account5/device1/$GPRMC,183816,A,7000.89998,N,2052.26146,E,43.736501,341.600006,211214,,*16
account5/device1/$GPRMC,183818,A,7000.92339,N,2052.23830,E,44.222462,340.899994,211214,,*10
account5/device1/$GPRMC,183820,A,7000.94737,N,2052.21450,E,44.708423,341.100006,211214,,*1D
account5/device1/$GPRMC,183822,A,7000.97089,N,2052.19156,E,44.708423,341.399994,211214,,*16
account5/device1/$GPRMC,183824,A,7000.99464,N,2052.16786,E,44.708423,341.299988,211214,,*11
account5/device1/$GPRMC,183826,A,7001.01856,N,2052.14403,E,44.222462,341.200012,211214,,*10
account5/device1/$GPRMC,183828,A,7001.04226,N,2052.12078,E,44.708423,341.299988,211214,,*1A
account5/device1/$GPRMC,183830,A,7001.06588,N,2052.09775,E,44.708423,341.000000,211214,,*19
account5/device1/$GPRMC,183832,A,7001.08926,N,2052.07532,E,44.708423,341.600006,211214,,*12
account5/device1/$GPRMC,183833,A,7001.10075,N,2052.06422,E,44.708423,341.200012,211214,,*15
account5/device1/$GPRMC,183835,A,7001.12396,N,2052.04072,E,44.222462,340.799988,211214,,*1A
account5/device1/$GPRMC,183837,A,7001.14718,N,2052.01809,E,43.250540,341.100006,211214,,*16
account5/device1/$GPRMC,183839,A,7001.16946,N,2051.99591,E,42.764579,341.399994,211214,,*18
account5/device1/$GPRMC,183841,A,7001.19157,N,2051.97350,E,42.764579,340.700012,211214,,*17
account5/device1/$GPRMC,183843,A,7001.21282,N,2051.95060,E,41.306695,338.899994,211214,,*12
account5/device1/$GPRMC,183845,A,7001.23325,N,2051.92330,E,39.362851,335.399994,211214,,*16
account5/device1/$GPRMC,183847,A,7001.25195,N,2051.89450,E,37.419006,332.299988,211214,,*14
account5/device1/$GPRMC,183849,A,7001.27010,N,2051.86362,E,36.933045,328.799988,211214,,*10
account5/device1/$GPRMC,183851,A,7001.28686,N,2051.83081,E,37.904968,325.100006,211214,,*13
account5/device1/$GPRMC,183853,A,7001.30436,N,2051.79281,E,38.876890,322.399994,211214,,*1C
account5/device1/$GPRMC,183855,A,7001.32171,N,2051.75194,E,39.848812,319.899994,211214,,*10
account5/device1/$GPRMC,183856,A,7001.33024,N,2051.73055,E,39.848812,319.299988,211214,,*1E
account5/device1/$GPRMC,183858,A,7001.34767,N,2051.68799,E,40.820734,319.399994,211214,,*1D
account5/device1/$GPRMC,183900,A,7001.36430,N,2051.64644,E,39.848812,319.899994,211214,,*1F
account5/device1/$GPRMC,183902,A,7001.37981,N,2051.60866,E,38.876890,319.700012,211214,,*1F
account5/device1/$GPRMC,183904,A,7001.39706,N,2051.56815,E,38.876890,321.399994,211214,,*1F
account5/device1/$GPRMC,183906,A,7001.41401,N,2051.53168,E,39.362851,323.200012,211214,,*16
account5/device1/$GPRMC,183908,A,7001.43174,N,2051.49671,E,39.848812,325.799988,211214,,*14
account5/device1/$GPRMC,183910,A,7001.45105,N,2051.46054,E,41.306695,328.299988,211214,,*14
account5/device1/$GPRMC,183912,A,7001.47083,N,2051.42462,E,41.792657,329.799988,211214,,*1D
account5/device1/$GPRMC,183914,A,7001.49112,N,2051.39180,E,41.792657,332.000000,211214,,*1D
account5/device1/$GPRMC,183916,A,7001.51074,N,2051.36071,E,41.306695,333.899994,211214,,*1D
account5/device1/$GPRMC,183918,A,7001.53095,N,2051.33280,E,39.848812,334.899994,211214,,*1F
account5/device1/$GPRMC,183920,A,7001.54986,N,2051.30690,E,36.447084,335.000000,211214,,*18
account5/device1/$GPRMC,183922,A,7001.56718,N,2051.28392,E,34.503240,333.899994,211214,,*1C
account5/device1/$GPRMC,183924,A,7001.58336,N,2051.26026,E,32.559395,332.299988,211214,,*18
account5/device1/$GPRMC,183926,A,7001.59937,N,2051.23584,E,32.559395,332.299988,211214,,*18
account5/device1/$GPRMC,183928,A,7001.61569,N,2051.20924,E,34.017279,331.000000,211214,,*1D
account5/device1/$GPRMC,183930,A,7001.63194,N,2051.18189,E,35.475162,329.100006,211214,,*12
account5/device1/$GPRMC,183932,A,7001.65005,N,2051.15105,E,36.933045,329.399994,211214,,*1E
account5/device1/$GPRMC,183934,A,7001.66689,N,2051.11816,E,37.419006,326.500000,211214,,*18
account5/device1/$GPRMC,183936,A,7001.68470,N,2051.08523,E,37.419006,326.399994,211214,,*11
account5/device1/$GPRMC,183938,A,7001.70241,N,2051.04966,E,37.904968,326.899994,211214,,*18
account5/device1/$GPRMC,183940,A,7001.71957,N,2051.01669,E,36.447084,326.399994,211214,,*14
account5/device1/$GPRMC,183942,A,7001.73617,N,2050.98445,E,36.447084,327.100006,211214,,*13
account5/device1/$GPRMC,183944,A,7001.75283,N,2050.95248,E,35.961123,327.299988,211214,,*16
account5/device1/$GPRMC,183946,A,7001.76875,N,2050.92176,E,34.503240,327.000000,211214,,*19
account5/device1/$GPRMC,183948,A,7001.78369,N,2050.89236,E,32.559395,326.600006,211214,,*13
account5/device1/$GPRMC,183950,A,7001.79822,N,2050.86472,E,31.101512,326.100006,211214,,*12
account5/device1/$GPRMC,183952,A,7001.81185,N,2050.83658,E,29.643628,325.500000,211214,,*1F
account5/device1/$GPRMC,183954,A,7001.82302,N,2050.80864,E,29.157667,323.700012,211214,,*1B
account5/device1/$GPRMC,183956,A,7001.83494,N,2050.77855,E,28.671706,322.299988,211214,,*10
account5/device1/$GPRMC,183958,A,7001.84743,N,2050.75060,E,26.241901,320.600006,211214,,*15
account5/device1/$GPRMC,184000,A,7001.85677,N,2050.72657,E,22.840173,319.700012,211214,,*18
account5/device1/$GPRMC,184002,A,7001.86490,N,2050.70798,E,18.466523,319.799988,211214,,*18
account5/device1/$GPRMC,184004,A,7001.87188,N,2050.69207,E,15.064795,321.500000,211214,,*1C
account5/device1/$GPRMC,184006,A,7001.87815,N,2050.67901,E,13.120950,326.600006,211214,,*12
account5/device1/$GPRMC,184008,A,7001.88376,N,2050.67175,E,11.177106,338.399994,211214,,*15
account5/device1/$GPRMC,184010,A,7001.88963,N,2050.67027,E,9.233261,358.100006,211214,,*2A
account5/device1/$GPRMC,184012,A,7001.89282,N,2050.67270,E,5.831533,18.600000,211214,,*1F
account5/device1/$GPRMC,184014,A,7001.89496,N,2050.67563,E,3.887689,20.000000,211214,,*1B
account5/device1/$GPRMC,184016,A,7001.89595,N,2050.67648,E,1.457883,20.000000,211214,,*16
account5/device1/$GPRMC,184018,A,7001.89635,N,2050.67582,E,0.000000,0.000000,211214,,*22
account5/device1/$GPRMC,184020,A,7001.89664,N,2050.67448,E,0.000000,0.000000,211214,,*2A
account5/device1/$GPRMC,184022,A,7001.89706,N,2050.67433,E,0.000000,0.000000,211214,,*21
account5/device1/$GPRMC,184024,A,7001.89722,N,2050.67393,E,0.000000,0.000000,211214,,*2C
account5/device1/$GPRMC,184026,A,7001.89728,N,2050.67337,E,0.000000,0.000000,211214,,*2A
account5/device1/$GPRMC,184028,A,7001.89762,N,2050.67327,E,0.000000,0.000000,211214,,*2B
account5/device1/$GPRMC,184030,A,7001.89770,N,2050.67334,E,0.000000,0.000000,211214,,*23
account5/device1/$GPRMC,184032,A,7001.89771,N,2050.67337,E,0.000000,0.000000,211214,,*23
account5/device1/$GPRMC,184034,A,7001.89772,N,2050.67337,E,0.000000,0.000000,211214,,*26
account5/device1/$GPRMC,184035,A,7001.89772,N,2050.67338,E,0.000000,0.000000,211214,,*28
account5/device1/$GPRMC,184037,A,7001.89772,N,2050.67338,E,0.000000,0.000000,211214,,*2A
account5/device1/$GPRMC,184039,A,7001.89772,N,2050.67338,E,0.000000,0.000000,211214,,*24
account5/device1/$GPRMC,184041,A,7001.89772,N,2050.67338,E,0.000000,0.000000,211214,,*2B
account5/device1/$GPRMC,184043,A,7001.89772,N,2050.67339,E,0.000000,0.000000,211214,,*28
account5/device1/$GPRMC,184045,A,7001.89772,N,2050.67339,E,0.000000,0.000000,211214,,*2E
account5/device1/$GPRMC,184047,A,7001.89772,N,2050.67339,E,0.000000,0.000000,211214,,*2C
account5/device1/$GPRMC,184049,A,7001.89772,N,2050.67340,E,0.000000,0.000000,211214,,*2C
account5/device1/$GPRMC,184051,A,7001.89772,N,2050.67340,E,0.000000,0.000000,211214,,*25
account5/device1/$GPRMC,184053,A,7001.89772,N,2050.67341,E,0.000000,0.000000,211214,,*26
account5/device1/$GPRMC,184055,A,7001.89771,N,2050.67342,E,0.000000,0.000000,211214,,*20
account5/device1/$GPRMC,184057,A,7001.89771,N,2050.67342,E,0.000000,0.000000,211214,,*22
account5/device1/$GPRMC,184101,A,7001.89772,N,2050.67344,E,0.000000,0.000000,211214,,*25
account5/device1/$GPRMC,184103,A,7001.89772,N,2050.67345,E,0.000000,0.000000,211214,,*26
account5/device1/$GPRMC,184105,A,7001.89772,N,2050.67345,E,0.000000,0.000000,211214,,*20
account5/device1/$GPRMC,184107,A,7001.89772,N,2050.67346,E,0.000000,0.000000,211214,,*21
account5/device1/$GPRMC,184109,A,7001.89772,N,2050.67347,E,0.000000,0.000000,211214,,*2E
account5/device1/$GPRMC,184111,A,7001.89773,N,2050.67347,E,0.000000,0.000000,211214,,*26
account5/device1/$GPRMC,184113,A,7001.89773,N,2050.67348,E,0.000000,0.000000,211214,,*2B
account5/device1/$GPRMC,184115,A,7001.89773,N,2050.67349,E,0.000000,0.000000,211214,,*2C
account5/device1/$GPRMC,184117,A,7001.89773,N,2050.67350,E,0.000000,0.000000,211214,,*26
account5/device1/$GPRMC,184119,A,7001.89773,N,2050.67351,E,0.000000,0.000000,211214,,*29
account5/device1/$GPRMC,184121,A,7001.89773,N,2050.67351,E,0.000000,0.000000,211214,,*22
account5/device1/$GPRMC,184123,A,7001.89773,N,2050.67352,E,0.000000,0.000000,211214,,*23
account5/device1/$GPRMC,184124,A,7001.89773,N,2050.67353,E,0.000000,0.000000,211214,,*25
account5/device1/$GPRMC,184126,A,7001.89773,N,2050.67354,E,0.000000,0.000000,211214,,*20
account5/device1/$GPRMC,184127,A,7001.89773,N,2050.67355,E,0.000000,0.000000,211214,,*20
account5/device1/$GPRMC,184129,A,7001.89772,N,2050.67356,E,0.000000,0.000000,211214,,*2C
account5/device1/$GPRMC,184130,A,7001.89772,N,2050.67356,E,0.000000,0.000000,211214,,*24
account5/device1/$GPRMC,184132,A,7001.89772,N,2050.67357,E,0.000000,0.000000,211214,,*27
account5/device1/$GPRMC,184133,A,7001.89772,N,2050.67357,E,0.000000,0.000000,211214,,*26
account5/device1/$GPRMC,184134,A,7001.89772,N,2050.67358,E,0.000000,0.000000,211214,,*2E
account5/device1/$GPRMC,184136,A,7001.89772,N,2050.67358,E,0.000000,0.000000,211214,,*2C
account5/device1/$GPRMC,184137,A,7001.89772,N,2050.67358,E,0.000000,0.000000,211214,,*2D
account5/device1/$GPRMC,184139,A,7001.89771,N,2050.67359,E,0.000000,0.000000,211214,,*21
account5/device1/$GPRMC,184140,A,7001.89771,N,2050.67359,E,0.000000,0.000000,211214,,*2F
account5/device1/$GPRMC,184142,A,7001.89771,N,2050.67359,E,0.000000,0.000000,211214,,*2D
account5/device1/$GPRMC,184143,A,7001.89771,N,2050.67359,E,0.000000,0.000000,211214,,*2C
account5/device1/$GPRMC,184144,A,7001.89771,N,2050.67359,E,0.000000,0.000000,211214,,*2B
account5/device1/$GPRMC,184145,A,7001.89771,N,2050.67359,E,0.000000,0.000000,211214,,*2A
account5/device1/$GPRMC,184147,A,7001.89771,N,2050.67359,E,0.000000,0.000000,211214,,*28
account5/device1/$GPRMC,184148,A,7001.89771,N,2050.67359,E,0.000000,0.000000,211214,,*27
account5/device1/$GPRMC,184149,A,7001.89771,N,2050.67360,E,0.000000,0.000000,211214,,*2C
account5/device1/$GPRMC,184151,A,7001.89771,N,2050.67360,E,0.000000,0.000000,211214,,*25
account5/device1/$GPRMC,184153,A,7001.89771,N,2050.67361,E,0.000000,0.000000,211214,,*26
account5/device1/$GPRMC,184154,A,7001.89771,N,2050.67361,E,0.000000,0.000000,211214,,*21
account5/device1/$GPRMC,184155,A,7001.89771,N,2050.67361,E,0.000000,0.000000,211214,,*20
account5/device1/$GPRMC,184157,A,7001.89772,N,2050.67362,E,0.000000,0.000000,211214,,*22
account5/device1/$GPRMC,184159,A,7001.89771,N,2050.67363,E,0.000000,0.000000,211214,,*2E
account5/device1/$GPRMC,184200,A,7001.89772,N,2050.67363,E,0.000000,0.000000,211214,,*22
account5/device1/$GPRMC,184201,A,7001.89772,N,2050.67363,E,0.000000,0.000000,211214,,*23
account5/device1/$GPRMC,184203,A,7001.89772,N,2050.67363,E,0.000000,0.000000,211214,,*21
account5/device1/$GPRMC,184204,A,7001.89772,N,2050.67362,E,0.000000,0.000000,211214,,*27
account5/device1/$GPRMC,184206,A,7001.89772,N,2050.67362,E,0.000000,0.000000,211214,,*25
account5/device1/$GPRMC,184208,A,7001.89772,N,2050.67363,E,0.000000,0.000000,211214,,*2A
account5/device1/$GPRMC,184209,A,7001.89772,N,2050.67363,E,0.000000,0.000000,211214,,*2B
account5/device1/$GPRMC,184211,A,7001.89771,N,2050.67363,E,0.000000,0.000000,211214,,*21
account5/device1/$GPRMC,184212,A,7001.89771,N,2050.67362,E,0.000000,0.000000,211214,,*23
account5/device1/$GPRMC,184213,A,7001.89771,N,2050.67362,E,0.000000,0.000000,211214,,*22
account5/device1/$GPRMC,184214,A,7001.89771,N,2050.67362,E,0.000000,0.000000,211214,,*25
account5/device1/$GPRMC,184216,A,7001.89771,N,2050.67362,E,0.000000,0.000000,211214,,*27
account5/device1/$GPRMC,184217,A,7001.89771,N,2050.67363,E,0.000000,0.000000,211214,,*27
account5/device1/$GPRMC,184218,A,7001.89770,N,2050.67363,E,0.000000,0.000000,211214,,*29
account5/device1/$GPRMC,184220,A,7001.89770,N,2050.67363,E,0.000000,0.000000,211214,,*22
account5/device1/$GPRMC,184221,A,7001.89770,N,2050.67363,E,0.000000,0.000000,211214,,*23
account5/device1/$GPRMC,184223,A,7001.89770,N,2050.67363,E,0.000000,0.000000,211214,,*21
account5/device1/$GPRMC,184225,A,7001.89770,N,2050.67363,E,0.000000,0.000000,211214,,*27
account5/device1/$GPRMC,184227,A,7001.89770,N,2050.67363,E,0.000000,0.000000,211214,,*25
account5/device1/$GPRMC,184229,A,7001.89770,N,2050.67363,E,0.000000,0.000000,211214,,*2B
account5/device1/$GPRMC,184231,A,7001.89770,N,2050.67364,E,0.000000,0.000000,211214,,*25
account5/device1/$GPRMC,184233,A,7001.89770,N,2050.67364,E,0.000000,0.000000,211214,,*27
account5/device1/$GPRMC,184235,A,7001.89770,N,2050.67364,E,0.000000,0.000000,211214,,*21
account5/device1/$GPRMC,184237,A,7001.89770,N,2050.67363,E,0.000000,0.000000,211214,,*24
account5/device1/$GPRMC,184239,A,7001.89770,N,2050.67362,E,0.000000,0.000000,211214,,*2B
account5/device1/$GPRMC,184241,A,7001.89769,N,2050.67362,E,0.000000,0.000000,211214,,*2C
account5/device1/$GPRMC,184243,A,7001.89770,N,2050.67362,E,0.000000,0.000000,211214,,*26
account5/device1/$GPRMC,184245,A,7001.89770,N,2050.67362,E,0.000000,0.000000,211214,,*20
account5/device1/$GPRMC,184247,A,7001.89769,N,2050.67361,E,0.000000,0.000000,211214,,*29
account5/device1/$GPRMC,184249,A,7001.89769,N,2050.67361,E,0.000000,0.000000,211214,,*27
account5/device1/$GPRMC,184251,A,7001.89769,N,2050.67362,E,0.000000,0.000000,211214,,*2D
account5/device1/$GPRMC,184253,A,7001.89770,N,2050.67362,E,0.000000,0.000000,211214,,*27
account5/device1/$GPRMC,184255,A,7001.89770,N,2050.67362,E,0.000000,0.000000,211214,,*21
account5/device1/$GPRMC,184257,A,7001.89770,N,2050.67362,E,0.000000,0.000000,211214,,*23
account5/device1/$GPRMC,184259,A,7001.89771,N,2050.67362,E,0.000000,0.000000,211214,,*2C
account5/device1/$GPRMC,184301,A,7001.89771,N,2050.67362,E,0.000000,0.000000,211214,,*20
account5/device1/$GPRMC,184303,A,7001.89771,N,2050.67363,E,0.000000,0.000000,211214,,*23
account5/device1/$GPRMC,184305,A,7001.89772,N,2050.67362,E,0.000000,0.000000,211214,,*27
account5/device1/$GPRMC,184307,A,7001.89772,N,2050.67362,E,0.000000,0.000000,211214,,*25
account5/device1/$GPRMC,184309,A,7001.89773,N,2050.67362,E,0.000000,0.000000,211214,,*2A
account5/device1/$GPRMC,184311,A,7001.89773,N,2050.67362,E,0.000000,0.000000,211214,,*23
account5/device1/$GPRMC,184313,A,7001.89772,N,2050.67362,E,0.000000,0.000000,211214,,*20
account5/device1/$GPRMC,184315,A,7001.89772,N,2050.67361,E,0.000000,0.000000,211214,,*25
account5/device1/$GPRMC,184317,A,7001.89772,N,2050.67361,E,0.000000,0.000000,211214,,*27
account5/device1/$GPRMC,184319,A,7001.89772,N,2050.67362,E,0.000000,0.000000,211214,,*2A
account5/device1/$GPRMC,184321,A,7001.89771,N,2050.67362,E,0.000000,0.000000,211214,,*22
account5/device1/$GPRMC,184323,A,7001.89772,N,2050.67361,E,0.000000,0.000000,211214,,*20
account5/device1/$GPRMC,184325,A,7001.89771,N,2050.67362,E,0.000000,0.000000,211214,,*26
account5/device1/$GPRMC,184327,A,7001.89772,N,2050.67363,E,0.000000,0.000000,211214,,*26
account5/device1/$GPRMC,184329,A,7001.89772,N,2050.67363,E,0.000000,0.000000,211214,,*28
account5/device1/$GPRMC,184331,A,7001.89772,N,2050.67364,E,0.000000,0.000000,211214,,*26
account5/device1/$GPRMC,184333,A,7001.89772,N,2050.67364,E,0.000000,0.000000,211214,,*24
account5/device1/$GPRMC,184335,A,7001.89773,N,2050.67364,E,0.000000,0.000000,211214,,*23
account5/device1/$GPRMC,184337,A,7001.89773,N,2050.67364,E,0.000000,0.000000,211214,,*21
account5/device1/$GPRMC,184339,A,7001.89772,N,2050.67364,E,0.000000,0.000000,211214,,*2E
account5/device1/$GPRMC,184341,A,7001.89772,N,2050.67365,E,0.000000,0.000000,211214,,*20
account5/device1/$GPRMC,184343,A,7001.89772,N,2050.67365,E,0.000000,0.000000,211214,,*22
account5/device1/$GPRMC,184345,A,7001.89773,N,2050.67365,E,0.000000,0.000000,211214,,*25
account5/device1/$GPRMC,184347,A,7001.89772,N,2050.67365,E,0.000000,0.000000,211214,,*26
account5/device1/$GPRMC,184349,A,7001.89772,N,2050.67366,E,0.000000,0.000000,211214,,*2B
account5/device1/$GPRMC,184351,A,7001.89772,N,2050.67366,E,0.000000,0.000000,211214,,*22
account5/device1/$GPRMC,184353,A,7001.89772,N,2050.67367,E,0.000000,0.000000,211214,,*21
account5/device1/$GPRMC,184355,A,7001.89772,N,2050.67368,E,0.000000,0.000000,211214,,*28
account5/device1/$GPRMC,184357,A,7001.89773,N,2050.67368,E,0.000000,0.000000,211214,,*2B
account5/device1/$GPRMC,184359,A,7001.89773,N,2050.67368,E,0.000000,0.000000,211214,,*25
account5/device1/$GPRMC,184401,A,7001.89773,N,2050.67368,E,0.000000,0.000000,211214,,*2F
account5/device1/$GPRMC,184403,A,7001.89773,N,2050.67368,E,0.000000,0.000000,211214,,*2D
account5/device1/$GPRMC,184405,A,7001.89773,N,2050.67369,E,0.000000,0.000000,211214,,*2A
account5/device1/$GPRMC,184407,A,7001.89773,N,2050.67369,E,0.000000,0.000000,211214,,*28
account5/device1/$GPRMC,184409,A,7001.89773,N,2050.67370,E,0.000000,0.000000,211214,,*2E
account5/device1/$GPRMC,184411,A,7001.89773,N,2050.67370,E,0.000000,0.000000,211214,,*27
account5/device1/$GPRMC,184413,A,7001.89773,N,2050.67369,E,0.000000,0.000000,211214,,*2D
account5/device1/$GPRMC,184415,A,7001.89773,N,2050.67369,E,0.000000,0.000000,211214,,*2B
account5/device1/$GPRMC,184417,A,7001.89773,N,2050.67369,E,0.000000,0.000000,211214,,*29
account5/device1/$GPRMC,184419,A,7001.89773,N,2050.67369,E,0.000000,0.000000,211214,,*27
account5/device1/$GPRMC,184421,A,7001.89773,N,2050.67369,E,0.000000,0.000000,211214,,*2C
account5/device1/$GPRMC,184423,A,7001.89773,N,2050.67369,E,0.000000,0.000000,211214,,*2E
account5/device1/$GPRMC,184425,A,7001.89773,N,2050.67369,E,0.000000,0.000000,211214,,*28
account5/device1/$GPRMC,184427,A,7001.89774,N,2050.67370,E,0.000000,0.000000,211214,,*25
account5/device1/$GPRMC,184429,A,7001.89774,N,2050.67370,E,0.000000,0.000000,211214,,*2B
account5/device1/$GPRMC,184431,A,7001.89775,N,2050.67370,E,0.000000,0.000000,211214,,*23
account5/device1/$GPRMC,184433,A,7001.89775,N,2050.67370,E,0.000000,0.000000,211214,,*21
account5/device1/$GPRMC,184435,A,7001.89775,N,2050.67369,E,0.000000,0.000000,211214,,*2F
account5/device1/$GPRMC,184437,A,7001.89774,N,2050.67370,E,0.000000,0.000000,211214,,*24
account5/device1/$GPRMC,184439,A,7001.89775,N,2050.67369,E,0.000000,0.000000,211214,,*23
account5/device1/$GPRMC,184441,A,7001.89775,N,2050.67369,E,0.000000,0.000000,211214,,*2C
account5/device1/$GPRMC,184443,A,7001.89775,N,2050.67369,E,0.000000,0.000000,211214,,*2E
account5/device1/$GPRMC,184445,A,7001.89775,N,2050.67370,E,0.000000,0.000000,211214,,*20
account5/device1/$GPRMC,184447,A,7001.89775,N,2050.67370,E,0.000000,0.000000,211214,,*22
account5/device1/$GPRMC,184449,A,7001.89774,N,2050.67370,E,0.000000,0.000000,211214,,*2D
account5/device1/$GPRMC,184451,A,7001.89774,N,2050.67370,E,0.000000,0.000000,211214,,*24
account5/device1/$GPRMC,184453,A,7001.89775,N,2050.67370,E,0.000000,0.000000,211214,,*27
account5/device1/$GPRMC,184455,A,7001.89775,N,2050.67369,E,0.000000,0.000000,211214,,*29
account5/device1/$GPRMC,184457,A,7001.89775,N,2050.67370,E,0.000000,0.000000,211214,,*23
account5/device1/$GPRMC,184459,A,7001.89775,N,2050.67369,E,0.000000,0.000000,211214,,*25
account5/device1/$GPRMC,184501,A,7001.89776,N,2050.67370,E,0.000000,0.000000,211214,,*22
account5/device1/$GPRMC,184503,A,7001.89776,N,2050.67370,E,0.000000,0.000000,211214,,*20
account5/device1/$GPRMC,184505,A,7001.89776,N,2050.67371,E,0.000000,0.000000,211214,,*27
account5/device1/$GPRMC,184507,A,7001.89776,N,2050.67370,E,0.000000,0.000000,211214,,*24
account5/device1/$GPRMC,184509,A,7001.89776,N,2050.67371,E,0.000000,0.000000,211214,,*2B
account5/device1/$GPRMC,184511,A,7001.89777,N,2050.67371,E,0.000000,0.000000,211214,,*23
account5/device1/$GPRMC,184513,A,7001.89777,N,2050.67371,E,0.000000,0.000000,211214,,*21
account5/device1/$GPRMC,184515,A,7001.89777,N,2050.67371,E,0.000000,0.000000,211214,,*27
account5/device1/$GPRMC,184517,A,7001.89777,N,2050.67371,E,0.000000,0.000000,211214,,*25
account5/device1/$GPRMC,184519,A,7001.89777,N,2050.67371,E,0.000000,0.000000,211214,,*2B
account5/device1/$GPRMC,184521,A,7001.89777,N,2050.67371,E,0.000000,0.000000,211214,,*20
account5/device1/$GPRMC,184523,A,7001.89777,N,2050.67371,E,0.000000,0.000000,211214,,*22
account5/device1/$GPRMC,184525,A,7001.89778,N,2050.67371,E,0.000000,0.000000,211214,,*2B
account5/device1/$GPRMC,184527,A,7001.89778,N,2050.67372,E,0.000000,0.000000,211214,,*2A
account5/device1/$GPRMC,184529,A,7001.89778,N,2050.67372,E,0.000000,0.000000,211214,,*24
account5/device1/$GPRMC,184531,A,7001.89778,N,2050.67372,E,0.000000,0.000000,211214,,*2D
account5/device1/$GPRMC,184533,A,7001.89778,N,2050.67372,E,0.000000,0.000000,211214,,*2F
account5/device1/$GPRMC,184535,A,7001.89778,N,2050.67372,E,0.000000,0.000000,211214,,*29
account5/device1/$GPRMC,184537,A,7001.89778,N,2050.67373,E,0.000000,0.000000,211214,,*2A
account5/device1/$GPRMC,184539,A,7001.89778,N,2050.67373,E,0.000000,0.000000,211214,,*24
account5/device1/$GPRMC,184541,A,7001.89778,N,2050.67373,E,0.000000,0.000000,211214,,*2B
account5/device1/$GPRMC,184543,A,7001.89779,N,2050.67372,E,0.000000,0.000000,211214,,*29
account5/device1/$GPRMC,184545,A,7001.89779,N,2050.67373,E,0.000000,0.000000,211214,,*2E
account5/device1/$GPRMC,184547,A,7001.89779,N,2050.67373,E,0.000000,0.000000,211214,,*2C
account5/device1/$GPRMC,184549,A,7001.89779,N,2050.67373,E,0.000000,0.000000,211214,,*22
account5/device1/$GPRMC,184551,A,7001.89779,N,2050.67374,E,0.000000,0.000000,211214,,*2C
account5/device1/$GPRMC,184553,A,7001.89779,N,2050.67374,E,0.000000,0.000000,211214,,*2E
account5/device1/$GPRMC,184555,A,7001.89779,N,2050.67375,E,0.000000,0.000000,211214,,*29
account5/device1/$GPRMC,184557,A,7001.89780,N,2050.67376,E,0.000000,0.000000,211214,,*2E
account5/device1/$GPRMC,184559,A,7001.89780,N,2050.67377,E,0.000000,0.000000,211214,,*21
account5/device1/$GPRMC,184601,A,7001.89780,N,2050.67378,E,0.000000,0.000000,211214,,*20
account5/device1/$GPRMC,184603,A,7001.89780,N,2050.67379,E,0.000000,0.000000,211214,,*23
account5/device1/$GPRMC,184605,A,7001.89780,N,2050.67380,E,0.000000,0.000000,211214,,*23
account5/device1/$GPRMC,184607,A,7001.89780,N,2050.67380,E,0.000000,0.000000,211214,,*21
account5/device1/$GPRMC,184609,A,7001.89780,N,2050.67380,E,0.000000,0.000000,211214,,*2F
account5/device1/$GPRMC,184611,A,7001.89780,N,2050.67380,E,0.000000,0.000000,211214,,*26
account5/device1/$GPRMC,184613,A,7001.89780,N,2050.67381,E,0.000000,0.000000,211214,,*25
account5/device1/$GPRMC,184615,A,7001.89780,N,2050.67381,E,0.000000,0.000000,211214,,*23
account5/device1/$GPRMC,184617,A,7001.89781,N,2050.67381,E,0.000000,0.000000,211214,,*20
account5/device1/$GPRMC,184619,A,7001.89781,N,2050.67382,E,0.000000,0.000000,211214,,*2D
account5/device1/$GPRMC,184621,A,7001.89781,N,2050.67383,E,0.000000,0.000000,211214,,*27
account5/device1/$GPRMC,184623,A,7001.89781,N,2050.67383,E,0.000000,0.000000,211214,,*25
account5/device1/$GPRMC,184625,A,7001.89782,N,2050.67383,E,0.000000,0.000000,211214,,*20
account5/device1/$GPRMC,184627,A,7001.89782,N,2050.67382,E,0.000000,0.000000,211214,,*23
account5/device1/$GPRMC,184629,A,7001.89782,N,2050.67382,E,0.000000,0.000000,211214,,*2D
account5/device1/$GPRMC,184631,A,7001.89782,N,2050.67382,E,0.000000,0.000000,211214,,*24
account5/device1/$GPRMC,184633,A,7001.89783,N,2050.67382,E,0.000000,0.000000,211214,,*27
account5/device1/$GPRMC,184635,A,7001.89783,N,2050.67382,E,0.000000,0.000000,211214,,*21
account5/device1/$GPRMC,184637,A,7001.89783,N,2050.67381,E,0.000000,0.000000,211214,,*20
account5/device1/$GPRMC,184639,A,7001.89784,N,2050.67381,E,0.000000,0.000000,211214,,*29
account5/device1/$GPRMC,184641,A,7001.89784,N,2050.67381,E,0.000000,0.000000,211214,,*26
account5/device1/$GPRMC,184643,A,7001.89784,N,2050.67381,E,0.000000,0.000000,211214,,*24
account5/device1/$GPRMC,184645,A,7001.89784,N,2050.67381,E,0.000000,0.000000,211214,,*22
account5/device1/$GPRMC,184647,A,7001.89784,N,2050.67382,E,0.000000,0.000000,211214,,*23
account5/device1/$GPRMC,184649,A,7001.89783,N,2050.67383,E,0.000000,0.000000,211214,,*2B
account5/device1/$GPRMC,184651,A,7001.89783,N,2050.67383,E,0.000000,0.000000,211214,,*22
account5/device1/$GPRMC,184653,A,7001.89783,N,2050.67384,E,0.000000,0.000000,211214,,*27
account5/device1/$GPRMC,184655,A,7001.89784,N,2050.67384,E,0.000000,0.000000,211214,,*26
account5/device1/$GPRMC,184657,A,7001.89784,N,2050.67384,E,0.000000,0.000000,211214,,*24
account5/device1/$GPRMC,184659,A,7001.89784,N,2050.67384,E,0.000000,0.000000,211214,,*2A
account5/device1/$GPRMC,184701,A,7001.89784,N,2050.67385,E,0.000000,0.000000,211214,,*27
account5/device1/$GPRMC,184703,A,7001.89784,N,2050.67385,E,0.000000,0.000000,211214,,*25
account5/device1/$GPRMC,184705,A,7001.89783,N,2050.67385,E,0.000000,0.000000,211214,,*24
account5/device1/$GPRMC,184707,A,7001.89784,N,2050.67385,E,0.000000,0.000000,211214,,*21
account5/device1/$GPRMC,184709,A,7001.89784,N,2050.67385,E,0.000000,0.000000,211214,,*2F
account5/device1/$GPRMC,184711,A,7001.89784,N,2050.67385,E,0.000000,0.000000,211214,,*26
account5/device1/$GPRMC,184713,A,7001.89785,N,2050.67386,E,0.000000,0.000000,211214,,*26
account5/device1/$GPRMC,184715,A,7001.89785,N,2050.67386,E,0.000000,0.000000,211214,,*20
account5/device1/$GPRMC,184717,A,7001.89785,N,2050.67385,E,0.000000,0.000000,211214,,*21
account5/device1/$GPRMC,184719,A,7001.89785,N,2050.67386,E,0.000000,0.000000,211214,,*2C
account5/device1/$GPRMC,184721,A,7001.89785,N,2050.67385,E,0.000000,0.000000,211214,,*24
account5/device1/$GPRMC,184723,A,7001.89785,N,2050.67385,E,0.000000,0.000000,211214,,*26
account5/device1/$GPRMC,184725,A,7001.89786,N,2050.67385,E,0.000000,0.000000,211214,,*23
account5/device1/$GPRMC,184727,A,7001.89786,N,2050.67386,E,0.000000,0.000000,211214,,*22
account5/device1/$GPRMC,184729,A,7001.89786,N,2050.67386,E,0.000000,0.000000,211214,,*2C
account5/device1/$GPRMC,184731,A,7001.89786,N,2050.67387,E,0.000000,0.000000,211214,,*24
account5/device1/$GPRMC,184733,A,7001.89786,N,2050.67386,E,0.000000,0.000000,211214,,*27
account5/device1/$GPRMC,184735,A,7001.89786,N,2050.67386,E,0.000000,0.000000,211214,,*21
account5/device1/$GPRMC,184737,A,7001.89787,N,2050.67386,E,0.000000,0.000000,211214,,*22
account5/device1/$GPRMC,184739,A,7001.89787,N,2050.67386,E,0.000000,0.000000,211214,,*2C
account5/device1/$GPRMC,184741,A,7001.89788,N,2050.67387,E,0.000000,0.000000,211214,,*2D
account5/device1/$GPRMC,184743,A,7001.89788,N,2050.67387,E,0.000000,0.000000,211214,,*2F
account5/device1/$GPRMC,184745,A,7001.89788,N,2050.67386,E,0.000000,0.000000,211214,,*28
account5/device1/$GPRMC,184747,A,7001.89788,N,2050.67386,E,0.000000,0.000000,211214,,*2A
account5/device1/$GPRMC,184749,A,7001.89788,N,2050.67387,E,0.000000,0.000000,211214,,*25
account5/device1/$GPRMC,184751,A,7001.89788,N,2050.67386,E,0.000000,0.000000,211214,,*2D
account5/device1/$GPRMC,184753,A,7001.89789,N,2050.67386,E,0.000000,0.000000,211214,,*2E
account5/device1/$GPRMC,184755,A,7001.89789,N,2050.67387,E,0.000000,0.000000,211214,,*29
account5/device1/$GPRMC,184757,A,7001.89789,N,2050.67387,E,0.000000,0.000000,211214,,*2B
account5/device1/$GPRMC,184759,A,7001.89789,N,2050.67387,E,0.000000,0.000000,211214,,*25
account5/device1/$GPRMC,184801,A,7001.89789,N,2050.67388,E,0.000000,0.000000,211214,,*28
account5/device1/$GPRMC,184803,A,7001.89789,N,2050.67388,E,0.000000,0.000000,211214,,*2A
account5/device1/$GPRMC,184805,A,7001.89790,N,2050.67389,E,0.000000,0.000000,211214,,*25
account5/device1/$GPRMC,184807,A,7001.89790,N,2050.67389,E,0.000000,0.000000,211214,,*27
account5/device1/$GPRMC,184809,A,7001.89790,N,2050.67389,E,0.000000,0.000000,211214,,*29
account5/device1/$GPRMC,184811,A,7001.89790,N,2050.67389,E,0.000000,0.000000,211214,,*20
account5/device1/$GPRMC,184813,A,7001.89790,N,2050.67389,E,0.000000,0.000000,211214,,*22
account5/device1/$GPRMC,184815,A,7001.89790,N,2050.67389,E,0.000000,0.000000,211214,,*24
account5/device1/$GPRMC,184817,A,7001.89790,N,2050.67389,E,0.000000,0.000000,211214,,*26
account5/device1/$GPRMC,184819,A,7001.89791,N,2050.67390,E,0.000000,0.000000,211214,,*21
account5/device1/$GPRMC,184821,A,7001.89791,N,2050.67390,E,0.000000,0.000000,211214,,*2A
account5/device1/$GPRMC,184823,A,7001.89791,N,2050.67390,E,0.000000,0.000000,211214,,*28
account5/device1/$GPRMC,184825,A,7001.89792,N,2050.67391,E,0.000000,0.000000,211214,,*2C
account5/device1/$GPRMC,184827,A,7001.89792,N,2050.67391,E,0.000000,0.000000,211214,,*2E
account5/device1/$GPRMC,184829,A,7001.89792,N,2050.67391,E,0.000000,0.000000,211214,,*20
account5/device1/$GPRMC,184831,A,7001.89792,N,2050.67391,E,0.000000,0.000000,211214,,*29
account5/device1/$GPRMC,184833,A,7001.89793,N,2050.67392,E,0.000000,0.000000,211214,,*29
account5/device1/$GPRMC,184835,A,7001.89793,N,2050.67392,E,0.000000,0.000000,211214,,*2F
account5/device1/$GPRMC,184837,A,7001.89793,N,2050.67392,E,0.000000,0.000000,211214,,*2D
account5/device1/$GPRMC,184839,A,7001.89793,N,2050.67393,E,0.000000,0.000000,211214,,*22
account5/device1/$GPRMC,184841,A,7001.89793,N,2050.67394,E,0.000000,0.000000,211214,,*2A
account5/device1/$GPRMC,184843,A,7001.89793,N,2050.67395,E,0.000000,0.000000,211214,,*29
account5/device1/$GPRMC,184845,A,7001.89793,N,2050.67396,E,0.000000,0.000000,211214,,*2C
account5/device1/$GPRMC,184847,A,7001.89793,N,2050.67396,E,0.000000,0.000000,211214,,*2E
account5/device1/$GPRMC,184849,A,7001.89792,N,2050.67396,E,0.000000,0.000000,211214,,*21
account5/device1/$GPRMC,184851,A,7001.89792,N,2050.67396,E,0.000000,0.000000,211214,,*28
account5/device1/$GPRMC,184853,A,7001.89792,N,2050.67397,E,0.000000,0.000000,211214,,*2B
account5/device1/$GPRMC,184855,A,7001.89792,N,2050.67396,E,0.000000,0.000000,211214,,*2C
account5/device1/$GPRMC,184857,A,7001.89792,N,2050.67396,E,0.000000,0.000000,211214,,*2E
account5/device1/$GPRMC,184859,A,7001.89792,N,2050.67396,E,0.000000,0.000000,211214,,*20
account5/device1/$GPRMC,184901,A,7001.89792,N,2050.67396,E,0.000000,0.000000,211214,,*2C
account5/device1/$GPRMC,184903,A,7001.89792,N,2050.67396,E,0.000000,0.000000,211214,,*2E
account5/device1/$GPRMC,184905,A,7001.89792,N,2050.67396,E,0.000000,0.000000,211214,,*28
account5/device1/$GPRMC,184907,A,7001.89793,N,2050.67396,E,0.000000,0.000000,211214,,*2B
account5/device1/$GPRMC,184909,A,7001.89793,N,2050.67396,E,0.000000,0.000000,211214,,*25
account5/device1/$GPRMC,184911,A,7001.89793,N,2050.67397,E,0.000000,0.000000,211214,,*2D
account5/device1/$GPRMC,184913,A,7001.89793,N,2050.67397,E,0.000000,0.000000,211214,,*2F
account5/device1/$GPRMC,184915,A,7001.89793,N,2050.67398,E,0.000000,0.000000,211214,,*26
account5/device1/$GPRMC,184917,A,7001.89793,N,2050.67397,E,0.000000,0.000000,211214,,*2B
account5/device1/$GPRMC,184919,A,7001.89793,N,2050.67397,E,0.000000,0.000000,211214,,*25
account5/device1/$GPRMC,184921,A,7001.89793,N,2050.67398,E,0.000000,0.000000,211214,,*21
account5/device1/$GPRMC,184923,A,7001.89793,N,2050.67398,E,0.000000,0.000000,211214,,*23
account5/device1/$GPRMC,184925,A,7001.89793,N,2050.67397,E,0.000000,0.000000,211214,,*2A
account5/device1/$GPRMC,184927,A,7001.89793,N,2050.67398,E,0.000000,0.000000,211214,,*27
account5/device1/$GPRMC,184929,A,7001.89793,N,2050.67398,E,0.000000,0.000000,211214,,*29
account5/device1/$GPRMC,184931,A,7001.89793,N,2050.67399,E,0.000000,0.000000,211214,,*21
account5/device1/$GPRMC,184933,A,7001.89793,N,2050.67399,E,0.000000,0.000000,211214,,*23
account5/device1/$GPRMC,184935,A,7001.89793,N,2050.67400,E,0.000000,0.000000,211214,,*22
account5/device1/$GPRMC,184937,A,7001.89793,N,2050.67400,E,0.000000,0.000000,211214,,*20
account5/device1/$GPRMC,184939,A,7001.89793,N,2050.67401,E,0.000000,0.000000,211214,,*2F
account5/device1/$GPRMC,184941,A,7001.89793,N,2050.67400,E,0.000000,0.000000,211214,,*21
account5/device1/$GPRMC,184943,A,7001.89793,N,2050.67399,E,0.000000,0.000000,211214,,*24
account5/device1/$GPRMC,184945,A,7001.89794,N,2050.67399,E,0.000000,0.000000,211214,,*25
account5/device1/$GPRMC,184947,A,7001.89794,N,2050.67399,E,0.000000,0.000000,211214,,*27
account5/device1/$GPRMC,184949,A,7001.89794,N,2050.67398,E,0.000000,0.000000,211214,,*28
account5/device1/$GPRMC,184951,A,7001.89794,N,2050.67398,E,0.000000,0.000000,211214,,*21
account5/device1/$GPRMC,184953,A,7001.89794,N,2050.67398,E,0.000000,0.000000,211214,,*23
account5/device1/$GPRMC,184955,A,7001.89794,N,2050.67399,E,0.000000,0.000000,211214,,*24
account5/device1/$GPRMC,184957,A,7001.89794,N,2050.67399,E,0.000000,0.000000,211214,,*26
account5/device1/$GPRMC,185005,A,7001.89795,N,2050.67401,E,0.000000,0.000000,211214,,*2E
account5/device1/$GPRMC,185007,A,7001.89795,N,2050.67402,E,0.000000,0.000000,211214,,*2F
account5/device1/$GPRMC,185009,A,7001.89795,N,2050.67401,E,0.000000,0.000000,211214,,*22
account5/device1/$GPRMC,185011,A,7001.89795,N,2050.67402,E,0.000000,0.000000,211214,,*28
account5/device1/$GPRMC,185013,A,7001.89795,N,2050.67402,E,0.000000,0.000000,211214,,*2A
account5/device1/$GPRMC,185015,A,7001.89795,N,2050.67402,E,0.000000,0.000000,211214,,*2C
account5/device1/$GPRMC,185017,A,7001.89795,N,2050.67402,E,0.000000,0.000000,211214,,*2E
account5/device1/$GPRMC,185019,A,7001.89795,N,2050.67402,E,0.000000,0.000000,211214,,*20
b'account5/device1/$GPRMC,185021,A,7001.89796,N,2050.67402,E,0.000000,0.000000,211214,,*28'
b'account5/device1/$GPRMC,185023,A,7001.89796,N,2050.67402,E,0.000000,0.000000,211214,,*2A'
b'account5/device1/$GPRMC,185025,A,7001.89796,N,2050.67403,E,0.000000,0.000000,211214,,*2D'
b'account5/device1/$GPRMC,185027,A,7001.89796,N,2050.67403,E,0.000000,0.000000,211214,,*2F'
b'account5/device1/$GPRMC,185029,A,7001.89796,N,2050.67403,E,0.000000,0.000000,211214,,*21'
account5/device1/$GPRMC,185035,A,7001.89796,N,2050.67403,E,0.000000,0.000000,211214,,*2C
account5/device1/$GPRMC,185037,A,7001.89796,N,2050.67403,E,0.000000,0.000000,211214,,*2E
account5/device1/$GPRMC,185039,A,7001.89796,N,2050.67404,E,0.000000,0.000000,211214,,*27
account5/device1/$GPRMC,185041,A,7001.89796,N,2050.67403,E,0.000000,0.000000,211214,,*2F
account5/device1/$GPRMC,185043,A,7001.89797,N,2050.67403,E,0.000000,0.000000,211214,,*2C
account5/device1/$GPRMC,185045,A,7001.89796,N,2050.67403,E,0.000000,0.000000,211214,,*2B
account5/device1/$GPRMC,185047,A,7001.89796,N,2050.67402,E,0.000000,0.000000,211214,,*28
account5/device1/$GPRMC,185049,A,7001.89796,N,2050.67402,E,0.000000,0.000000,211214,,*26
account5/device1/$GPRMC,185051,A,7001.89796,N,2050.67402,E,0.000000,0.000000,211214,,*2F
account5/device1/$GPRMC,185053,A,7001.89796,N,2050.67402,E,0.000000,0.000000,211214,,*2D
account5/device1/$GPRMC,185055,A,7001.89796,N,2050.67402,E,0.000000,0.000000,211214,,*2B
account5/device1/$GPRMC,185057,A,7001.89797,N,2050.67402,E,0.000000,0.000000,211214,,*28
account5/device1/$GPRMC,185059,A,7001.89797,N,2050.67402,E,0.000000,0.000000,211214,,*26
account5/device1/$GPRMC,185101,A,7001.89797,N,2050.67402,E,0.000000,0.000000,211214,,*2A
account5/device1/$GPRMC,185103,A,7001.89797,N,2050.67402,E,0.000000,0.000000,211214,,*28
account5/device1/$GPRMC,185105,A,7001.89797,N,2050.67402,E,0.000000,0.000000,211214,,*2E
account5/device1/$GPRMC,185107,A,7001.89797,N,2050.67403,E,0.000000,0.000000,211214,,*2D
account5/device1/$GPRMC,185109,A,7001.89797,N,2050.67403,E,0.000000,0.000000,211214,,*23
account5/device1/$GPRMC,185111,A,7001.89797,N,2050.67404,E,0.000000,0.000000,211214,,*2D
account5/device1/$GPRMC,185113,A,7001.89797,N,2050.67404,E,0.000000,0.000000,211214,,*2F
account5/device1/$GPRMC,185115,A,7001.89797,N,2050.67404,E,0.000000,0.000000,211214,,*29
account5/device1/$GPRMC,185117,A,7001.89797,N,2050.67404,E,0.000000,0.000000,211214,,*2B
account5/device1/$GPRMC,185119,A,7001.89797,N,2050.67404,E,0.000000,0.000000,211214,,*25
account5/device1/$GPRMC,185121,A,7001.89797,N,2050.67404,E,0.000000,0.000000,211214,,*2E
account5/device1/$GPRMC,185123,A,7001.89796,N,2050.67404,E,0.000000,0.000000,211214,,*2D
account5/device1/$GPRMC,185125,A,7001.89796,N,2050.67404,E,0.000000,0.000000,211214,,*2B
account5/device1/$GPRMC,185127,A,7001.89796,N,2050.67404,E,0.000000,0.000000,211214,,*29
account5/device1/$GPRMC,185129,A,7001.89796,N,2050.67404,E,0.000000,0.000000,211214,,*27
account5/device1/$GPRMC,185131,A,7001.89796,N,2050.67405,E,0.000000,0.000000,211214,,*2F
account5/device1/$GPRMC,185133,A,7001.89796,N,2050.67405,E,0.000000,0.000000,211214,,*2D
account5/device1/$GPRMC,185135,A,7001.89796,N,2050.67404,E,0.000000,0.000000,211214,,*2A
account5/device1/$GPRMC,185137,A,7001.89796,N,2050.67404,E,0.000000,0.000000,211214,,*28
account5/device1/$GPRMC,185139,A,7001.89796,N,2050.67403,E,0.000000,0.000000,211214,,*21
account5/device1/$GPRMC,185141,A,7001.89797,N,2050.67403,E,0.000000,0.000000,211214,,*2F
account5/device1/$GPRMC,185143,A,7001.89797,N,2050.67403,E,0.000000,0.000000,211214,,*2D
account5/device1/$GPRMC,185157,A,7001.89798,N,2050.67401,E,0.000000,0.000000,211214,,*25
account5/device1/$GPRMC,185159,A,7001.89798,N,2050.67401,E,0.000000,0.000000,211214,,*2B
account5/device1/$GPRMC,185201,A,7001.89798,N,2050.67402,E,0.000000,0.000000,211214,,*26
account5/device1/$GPRMC,185203,A,7001.89798,N,2050.67401,E,0.000000,0.000000,211214,,*27
account5/device1/$GPRMC,185205,A,7001.89798,N,2050.67402,E,0.000000,0.000000,211214,,*22
account5/device1/$GPRMC,185207,A,7001.89798,N,2050.67402,E,0.000000,0.000000,211214,,*20
account5/device1/$GPRMC,185209,A,7001.89798,N,2050.67402,E,0.000000,0.000000,211214,,*2E
account5/device1/$GPRMC,185211,A,7001.89798,N,2050.67402,E,0.000000,0.000000,211214,,*27
account5/device1/$GPRMC,185213,A,7001.89798,N,2050.67403,E,0.000000,0.000000,211214,,*24
account5/device1/$GPRMC,185215,A,7001.89798,N,2050.67403,E,0.000000,0.000000,211214,,*22
account5/device1/$GPRMC,185217,A,7001.89798,N,2050.67404,E,0.000000,0.000000,211214,,*27
